[
  {
    "name": "OOHPod Portstewart",
    "address": "SuperValu, Station Road, Portstewart",
    "postcode": "BT55 7PU",
    "region": "Northern Ireland",
    "latitude": null,
    "longitude": null
  },
  {
    "name": "OOHPod Coleraine",
    "address": "Nicholl Fuels, Long Commons, Coleraine",
    "postcode": "BT52 1GG",
    "region": "Northern Ireland",
    "latitude": null,
    "longitude": null
  },
  {
    "name": "OOHPod Ballymoney North",
    "address": "Nicholl, Knock Road, Ballymoney",
    "postcode": "BT53 6TH",
    "region": "Northern Ireland",
    "latitude": null,
    "longitude": null
  },
  {
    "name": "OOHPod Ballymoney",
    "address": "Meeting House Street, Ballymoney",
    "postcode": "BT53 6JN",
    "region": "Northern Ireland",
    "latitude": null,
    "longitude": null
  },
  {
    "name": "OOHPod Kilrea",
    "address": "Kilrea Service Station, 26 Garvagh Road, Kilrea, Coleraine",
    "postcode": "BT51 5QP",
    "region": "Northern Ireland",
    "latitude": null,
    "longitude": null
  },
  {
    "name": "OOHPod Limavady",
    "address": "Lidl, Main Street, Limavady",
    "postcode": "BT49 0DB",
    "region": "Northern Ireland",
    "latitude": null,
    "longitude": null
  },
  {
    "name": "OOHPod Dunclug",
    "address": "SPAR, Dunclug Shopping Centre, Ballymena",
    "postcode": "BT43 6SA",
    "region": "Northern Ireland",
    "latitude": null,
    "longitude": null
  },
  {
    "name": "OOHPod Ballymena",
    "address": "Lidl, Demesne Ave, Ballymena",
    "postcode": "BT44 0BD",
    "region": "Northern Ireland",
    "latitude": null,
    "longitude": null
  },
  {
    "name": "OOHPod Portglenone",
    "address": "Centra, 34 Clady Road, Portglenone, Antrim",
    "postcode": "BT44 8NG",
    "region": "Northern Ireland",
    "latitude": null,
    "longitude": null
  },
  {
    "name": "OOHPod Dungiven",
    "address": "Centra, 804 Feeny Road, Dungiven, Derry",
    "postcode": "BT47 4TA",
    "region": "Northern Ireland",
    "latitude": null,
    "longitude": null
  },
  {
    "name": "OOHPod Old Glenarm Road",
    "address": "Centra, 127 Old Glenarm Road, Larne",
    "postcode": "BT40 1NQ",
    "region": "Northern Ireland",
    "latitude": null,
    "longitude": null
  },
  {
    "name": "OOHPod Eglinton",
    "address": "SuperValu, 8 Main Street, Eglinton, Derry",
    "postcode": "BT47 3PQ",
    "region": "Northern Ireland",
    "latitude": null,
    "longitude": null
  },
  {
    "name": "OOHPod Larne",
    "address": "Lidl, Circular Road, Larne",
    "postcode": "BT40 1JS",
    "region": "Northern Ireland",
    "latitude": null,
    "longitude": null
  },
  {
    "name": "OOHPod Antrim",
    "address": "Lidl Antrim, Ballymena Road, Antrim",
    "postcode": "BT41 4LL",
    "region": "Northern Ireland",
    "latitude": null,
    "longitude": null
  },
  {
    "name": "OOHPod Antrim Junction One",
    "address": "Centra, 57 Junction One International Outlet Shopping, Ballymena Road, Antrim",
    "postcode": "BT41 4LL",
    "region": "Northern Ireland",
    "latitude": null,
    "longitude": null
  },
  {
    "name": "OOHPod Greenhaw Road",
    "address": "SuperValu, Greenhaw Road, Derry",
    "postcode": "BT48 7RZ",
    "region": "Northern Ireland",
    "latitude": null,
    "longitude": null
  },
  {
    "name": "OOHPod Buncrana Road",
    "address": "Centra, Buncrana Road, Derry",
    "postcode": "BT48 8LB",
    "region": "Northern Ireland",
    "latitude": null,
    "longitude": null
  },
  {
    "name": "OOHPod Ballyrobert",
    "address": "SPAR, 47 Mossley Road, Ballyrobert, Ballyclare",
    "postcode": "BT39 9RX",
    "region": "Northern Ireland",
    "latitude": null,
    "longitude": null
  },
  {
    "name": "OOHPod Woodburn Road",
    "address": "Centra, 10 Woodburn Road, Carrickfergus, Antrim",
    "postcode": "BT38 8HQ",
    "region": "Northern Ireland",
    "latitude": null,
    "longitude": null
  },
  {
    "name": "OOHPod Carrickfergus",
    "address": "Lidl, 75D Belfast Road, Carrickfergus",
    "postcode": "BT38 8BY",
    "region": "Northern Ireland",
    "latitude": null,
    "longitude": null
  },
  {
    "name": "OOHPod O'Neill Road",
    "address": "Centra, 51 O'Neill Road, Newtownabbey",
    "postcode": "BT36 6UN",
    "region": "Northern Ireland",
    "latitude": null,
    "longitude": null
  },
  {
    "name": "OOHPod Newtownabbey",
    "address": "Lidl, Glenmount Road, Newtownabbey",
    "postcode": "BT36 7QJ",
    "region": "Northern Ireland",
    "latitude": null,
    "longitude": null
  },
  {
    "name": "OOHPod Shore Road",
    "address": "Centra, Shore Road, Newtownabbey",
    "postcode": "BT37 9RW",
    "region": "Northern Ireland",
    "latitude": null,
    "longitude": null
  },
  {
    "name": "OOHPod Cookstown",
    "address": "Lidl, Station Square Retail Park, Molesworth Street, Cookstown",
    "postcode": "BT80 8PA",
    "region": "Northern Ireland",
    "latitude": null,
    "longitude": null
  },
  {
    "name": "OOHPod Ballysillan",
    "address": "Lidl, Ballysillan Road, Belfast",
    "postcode": "BT14 7QP",
    "region": "Northern Ireland",
    "latitude": null,
    "longitude": null
  },
  {
    "name": "OOHPod Shore Road Lidl",
    "address": "Lidl, 176-202 Shore Road, Belfast",
    "postcode": "BT15 3QA",
    "region": "Northern Ireland",
    "latitude": null,
    "longitude": null
  },
  {
    "name": "OOHPod Crumlin Road",
    "address": "Lidl, Hillview Retail Park, Crumlin Road, Belfast",
    "postcode": "BT14 7EE",
    "region": "Northern Ireland",
    "latitude": null,
    "longitude": null
  },
  {
    "name": "OOHPod Boucher Road",
    "address": "Lidl, 2 Windsor Way, Belfast",
    "postcode": "BT12 6FA",
    "region": "Northern Ireland",
    "latitude": null,
    "longitude": null
  },
  {
    "name": "OOHPod Chichester Street",
    "address": "Centra, 71-75 Chichester Street, Belfast",
    "postcode": "BT1 4JE",
    "region": "Northern Ireland",
    "latitude": null,
    "longitude": null
  },
  {
    "name": "OOHPod Donaghadee Road",
    "address": "Mace, Donaghadee Road, Bangor",
    "postcode": "BT20 4RY",
    "region": "Northern Ireland",
    "latitude": null,
    "longitude": null
  },
  {
    "name": "OOHPod Park Center",
    "address": "Park Center, Donegall Road, Belfast",
    "postcode": "BT12 6HN",
    "region": "Northern Ireland",
    "latitude": null,
    "longitude": null
  },
  {
    "name": "OOHPod Stranmillis",
    "address": "Centra, 66-70 Stranmillis Road, Belfast",
    "postcode": "BT9 5AD",
    "region": "Northern Ireland",
    "latitude": null,
    "longitude": null
  },
  {
    "name": "OOHPod Castlereagh",
    "address": "Lidl, Castlereagh Road, Castlereagh, Belfast",
    "postcode": "BT6 9HL",
    "region": "Northern Ireland",
    "latitude": null,
    "longitude": null
  },
  {
    "name": "OOHPod Dundonald",
    "address": "Lidl, 2 Dunlady Road, Dundonald, Belfast",
    "postcode": "BT16 1TT",
    "region": "Northern Ireland",
    "latitude": null,
    "longitude": null
  },
  {
    "name": "OOHPod Dunmurry",
    "address": "Centra, 228 Stewartstown Road, Dunmurry, Belfast",
    "postcode": "BT17 0LB",
    "region": "Northern Ireland",
    "latitude": null,
    "longitude": null
  },
  {
    "name": "OOHPod White Mountain",
    "address": "Centra, 19 Mullaghglass Road, Whitemountain, Lisburn",
    "postcode": "BT28 3NS",
    "region": "Northern Ireland",
    "latitude": null,
    "longitude": null
  },
  {
    "name": "OOHPod Strabane",
    "address": "Dolans, 19 Lifford Road, Strabane, Tyrone",
    "postcode": "BT82 8EP",
    "region": "Northern Ireland",
    "latitude": null,
    "longitude": null
  },
  {
    "name": "OOHPod Strabane Retail Park",
    "address": "Lidl, Strabane Retail Park, Branch Road, Strabane",
    "postcode": "BT82 8EW",
    "region": "Northern Ireland",
    "latitude": null,
    "longitude": null
  },
  {
    "name": "OOHPod Castlebawn",
    "address": "Lidl, Castlebawn Roundabout, Newtownards",
    "postcode": "BT23 4XE",
    "region": "Northern Ireland",
    "latitude": null,
    "longitude": null
  },
  {
    "name": "OOHPod Lisburn",
    "address": "SuperValu, 97 Knockmore Road, Lisburn",
    "postcode": "BT28 2EA",
    "region": "Northern Ireland",
    "latitude": null,
    "longitude": null
  },
  {
    "name": "OOHPod Bentrim Road",
    "address": "Lidl, Bentrim Road, Lisburn",
    "postcode": "BT28 3YP",
    "region": "Northern Ireland",
    "latitude": null,
    "longitude": null
  },
  {
    "name": "OOHPod Ballynahinch Road",
    "address": "Centra, 2 Ballynahinch Road, Lisburn",
    "postcode": "BT27 5EY",
    "region": "Northern Ireland",
    "latitude": null,
    "longitude": null
  },
  {
    "name": "OOHPod Saintfield Road",
    "address": "Centra, 636 Saintfield Road, Carryduff, Belfast",
    "postcode": "BT8 8BT",
    "region": "Northern Ireland",
    "latitude": null,
    "longitude": null
  },
  {
    "name": "OOHPod Carryduff",
    "address": "Eurospar, 696 Saintfield Road, Carryduff, Belfast",
    "postcode": "BT8 8BX",
    "region": "Northern Ireland",
    "latitude": null,
    "longitude": null
  },
  {
    "name": "OOHPod Moira",
    "address": "Centra, 16 Main Street, Moira",
    "postcode": "BT67 0LE",
    "region": "Northern Ireland",
    "latitude": null,
    "longitude": null
  },
  {
    "name": "OOHPod Lurgan",
    "address": "SuperValu, 1A Flush Place, Lurgan, Craigavon",
    "postcode": "BT66 7DT",
    "region": "Northern Ireland",
    "latitude": null,
    "longitude": null
  },
  {
    "name": "OOHPod Craigavon",
    "address": "Lidl, 2 Highfield Grove, Craigavon",
    "postcode": "BT64 3AG",
    "region": "Northern Ireland",
    "latitude": null,
    "longitude": null
  },
  {
    "name": "OOHPod Lake Road",
    "address": "Centra, 10 Lake Road, Drumgor, Craigavon",
    "postcode": "BT65 4AF",
    "region": "Northern Ireland",
    "latitude": null,
    "longitude": null
  },
  {
    "name": "OOHPod Lisbane",
    "address": "SPAR, 175 Killinchy Road, Lisbane, Newtownards",
    "postcode": "BT23 5NE",
    "region": "Northern Ireland",
    "latitude": null,
    "longitude": null
  },
  {
    "name": "OOHPod Omagh",
    "address": "Centra, 53 Dromore Road, Omagh",
    "postcode": "BT78 1QZ",
    "region": "Northern Ireland",
    "latitude": null,
    "longitude": null
  },
  {
    "name": "OOHPod Ballynahinch",
    "address": "Lidl, Windmill Lane, Ballynahinch",
    "postcode": "BT24 8WD",
    "region": "Northern Ireland",
    "latitude": null,
    "longitude": null
  },
  {
    "name": "OOHPod Banbridge",
    "address": "Centra A1, 24 Halfway Road, Banbridge",
    "postcode": "BT32 4ET",
    "region": "Northern Ireland",
    "latitude": null,
    "longitude": null
  },
  {
    "name": "OOHPod Banbridge Town",
    "address": "Centra, 23A Church View Drive, Banbridge",
    "postcode": "BT32 4AA",
    "region": "Northern Ireland",
    "latitude": null,
    "longitude": null
  },
  {
    "name": "OOHPod Armagh",
    "address": "Centra, Portadown Road, Armagh",
    "postcode": "BT61 9DF",
    "region": "Northern Ireland",
    "latitude": null,
    "longitude": null
  },
  {
    "name": "OOHPod Spires SC",
    "address": "Spires Retail Park, Moy Road, Armagh",
    "postcode": "BT61 8DB",
    "region": "Northern Ireland",
    "latitude": null,
    "longitude": null
  },
  {
    "name": "OOHPod Downpatrick",
    "address": "Lidl, 98 Market Street, Downpatrick",
    "postcode": "BT30 6LZ",
    "region": "Northern Ireland",
    "latitude": null,
    "longitude": null
  },
  {
    "name": "OOHPod Keady",
    "address": "Centra, 237 Keady Road, Armagh",
    "postcode": "BT60 3EW",
    "region": "Northern Ireland",
    "latitude": null,
    "longitude": null
  },
  {
    "name": "OOHPod Irvinestown",
    "address": "SuperValu, 1 Brownhill Meadows, Irvinestown, Enniskillen",
    "postcode": "BT94 1DW",
    "region": "Northern Ireland",
    "latitude": null,
    "longitude": null
  },
  {
    "name": "OOHPod Dundrum Road",
    "address": "SuperValu, 80-82 Dundrum Road, Newcastle",
    "postcode": "BT33 0LN",
    "region": "Northern Ireland",
    "latitude": null,
    "longitude": null
  },
  {
    "name": "OOHPod Newry",
    "address": "SuperValu, Dublin Road, Newry",
    "postcode": "BT35 8QP",
    "region": "Northern Ireland",
    "latitude": null,
    "longitude": null
  },
  {
    "name": "OOHPod Rosslea",
    "address": "38-40 High Street, Rosslea, Enniskillen",
    "postcode": "BT92 7PP",
    "region": "Northern Ireland",
    "latitude": null,
    "longitude": null
  },
  {
    "name": "OOHPod Jonesborough",
    "address": "1 Finegans Road, Jonesborough",
    "postcode": "BT35 8YY",
    "region": "Northern Ireland",
    "latitude": null,
    "longitude": null
  },
  {
    "name": "OOHPod Lisnaskea",
    "address": "Eurospar, 31-33 Main Street, Lisnaskea, Enniskillen",
    "postcode": "BT92 0JB",
    "region": "Northern Ireland",
    "latitude": null,
    "longitude": null
  },
  {
    "name": "OOHPod Jonesborough South",
    "address": "NISA, 68 Edenappa Road, Jonesborough",
    "postcode": "BT35 8HU",
    "region": "Northern Ireland",
    "latitude": null,
    "longitude": null
  },
  {
    "name": "OOHPod Newtownbutler",
    "address": "39 Cavan Road, Newtownbutler",
    "postcode": "BT92 6EB",
    "region": "Northern Ireland",
    "latitude": null,
    "longitude": null
  },
  {
    "name": "OOHPod Belleek",
    "address": "717 Lough Shore Road, Belleek",
    "postcode": "BT93 3DE",
    "region": "Northern Ireland",
    "latitude": null,
    "longitude": null
  },
  {
    "name": "OOHPod Cavan Road",
    "address": "POB Fuels, 203 Cavan Road, Wattlebridge, Fermanagh",
    "postcode": "BT92 8FB",
    "region": "Northern Ireland",
    "latitude": null,
    "longitude": null
  }
]
